{
    "countries": [
        {
            "id": "D-1",
            "name": "Afghanistan",
            "iso": "AFG",
            "dac_status": "Least developed",
            "undp": "South Asia",
            "continent": "Asia",
            "iso2": "AF",
            "ngoaidmap": "gn_1149361",
            "latitude": 33.93911,
            "longitude": 67.709953
        },
        {
            "id": "D-240",
            "name": "Akrotiri and Dhekelia",
            "iso": "ALA",
            "dac_status": null,
            "undp": null,
            "continent": "Europe",
            "iso2": "AX",
            "ngoaidmap": null,
            "latitude": 34.583333,
            "longitude": 32.983333
        },
        {
            "id": "D-2",
            "name": "Albania",
            "iso": "ALB",
            "dac_status": "Upper middle income",
            "undp": "Europe and Central Asia",
            "continent": "Europe",
            "iso2": "AL",
            "ngoaidmap": "gn_783754",
            "latitude": 41.153332,
            "longitude": 20.168331
        },
        {
            "id": "D-3",
            "name": "Algeria",
            "iso": "DZA",
            "dac_status": "Upper middle income",
            "undp": "Arab States",
            "continent": "Africa",
            "iso2": "DZ",
            "ngoaidmap": "gn_2589581",
            "latitude": 28.033886,
            "longitude": 1.659626
        },
        {
            "id": "D-241",
            "name": "American Samoa",
            "iso": "ASM",
            "dac_status": null,
            "undp": null,
            "continent": "Oceania",
            "iso2": "AS",
            "ngoaidmap": "gn_5880801",
            "latitude": -14.270972,
            "longitude": -170.132217
        },
        {
            "id": "D-5",
            "name": "Andorra",
            "iso": "AND",
            "dac_status": null,
            "undp": null,
            "continent": "Europe",
            "iso2": "AD",
            "ngoaidmap": "gn_3041565",
            "latitude": 42.546245,
            "longitude": 1.601554
        },
        {
            "id": "D-6",
            "name": "Angola",
            "iso": "AGO",
            "dac_status": "Least developed",
            "undp": "Sub-Saharan Africa",
            "continent": "Africa",
            "iso2": "AO",
            "ngoaidmap": "gn_3351879",
            "latitude": -11.202692,
            "longitude": 17.873887
        },
        {
            "id": "D-242",
            "name": "Anguilla",
            "iso": "AIA",
            "dac_status": null,
            "undp": null,
            "continent": "North America",
            "iso2": "AI",
            "ngoaidmap": "gn_3573511",
            "latitude": 18.220554,
            "longitude": -63.068615
        },
        {
            "id": "D-236",
            "name": "Antarctica",
            "iso": "ATA",
            "dac_status": null,
            "undp": null,
            "continent": "Antarctica",
            "iso2": "AQ",
            "ngoaidmap": "gn_6697173",
            "latitude": -75.250973,
            "longitude": -0.071389
        },
        {
            "id": "D-9",
            "name": "Antigua and Barbuda",
            "iso": "ATG",
            "dac_status": "Upper middle income",
            "undp": "Latin America and the Caribbean",
            "continent": "North America",
            "iso2": "AG",
            "ngoaidmap": "gn_3576396",
            "latitude": 17.060816,
            "longitude": -61.796428
        },
        {
            "id": "D-10",
            "name": "Argentina",
            "iso": "ARG",
            "dac_status": "Upper middle income",
            "undp": "Latin America and the Caribbean",
            "continent": "South America",
            "iso2": "AR",
            "ngoaidmap": "gn_3865483",
            "latitude": -38.416097,
            "longitude": -63.616672
        },
        {
            "id": "D-11",
            "name": "Armenia",
            "iso": "ARM",
            "dac_status": "Lower middle income",
            "undp": "Europe and Central Asia",
            "continent": "Asia",
            "iso2": "AM",
            "ngoaidmap": "gn_174982",
            "latitude": 40.069099,
            "longitude": 45.038189
        },
        {
            "id": "D-243",
            "name": "Aruba",
            "iso": "ABW",
            "dac_status": null,
            "undp": null,
            "continent": "North America",
            "iso2": "AW",
            "ngoaidmap": "gn_3577279",
            "latitude": 12.52111,
            "longitude": -69.968338
        },
        {
            "id": "D-13",
            "name": "Australia",
            "iso": "AUS",
            "dac_status": null,
            "undp": null,
            "continent": "Oceania",
            "iso2": "AU",
            "ngoaidmap": "gn_2077456",
            "latitude": -25.274398,
            "longitude": 133.775136
        },
        {
            "id": "D-14",
            "name": "Austria",
            "iso": "AUT",
            "dac_status": null,
            "undp": null,
            "continent": "Europe",
            "iso2": "AT",
            "ngoaidmap": "gn_2782113",
            "latitude": 47.516231,
            "longitude": 14.550072
        },
        {
            "id": "D-15",
            "name": "Azerbaijan",
            "iso": "AZE",
            "dac_status": "Upper middle income",
            "undp": "Europe and Central Asia",
            "continent": "Asia",
            "iso2": "AZ",
            "ngoaidmap": "gn_587116",
            "latitude": 40.143105,
            "longitude": 47.576927
        },
        {
            "id": "D-17",
            "name": "Bahamas",
            "iso": "BHS",
            "dac_status": null,
            "undp": "Latin America and the Caribbean",
            "continent": "North America",
            "iso2": "BS",
            "ngoaidmap": "gn_3572887",
            "latitude": 25.03428,
            "longitude": -77.39628
        },
        {
            "id": "D-18",
            "name": "Bahrain",
            "iso": "BHR",
            "dac_status": null,
            "undp": "Arab States",
            "continent": "Asia",
            "iso2": "BH",
            "ngoaidmap": "cust_880000",
            "latitude": 25.930414,
            "longitude": 50.637772
        },
        {
            "id": "D-19",
            "name": "Bangladesh",
            "iso": "BGD",
            "dac_status": "Least developed",
            "undp": "South Asia",
            "continent": "Asia",
            "iso2": "BD",
            "ngoaidmap": "gn_1210997",
            "latitude": 23.684994,
            "longitude": 90.356331
        },
        {
            "id": "D-20",
            "name": "Barbados",
            "iso": "BRB",
            "dac_status": null,
            "undp": "Latin America and the Caribbean",
            "continent": "North America",
            "iso2": "BB",
            "ngoaidmap": "gn_3374084",
            "latitude": 13.193887,
            "longitude": -59.543198
        },
        {
            "id": "D-21",
            "name": "Belarus",
            "iso": "BLR",
            "dac_status": "Upper middle income",
            "undp": null,
            "continent": "Europe",
            "iso2": "BY",
            "ngoaidmap": "gn_630336",
            "latitude": 53.709807,
            "longitude": 27.953389
        },
        {
            "id": "D-22",
            "name": "Belgium",
            "iso": "BEL",
            "dac_status": null,
            "undp": null,
            "continent": "Europe",
            "iso2": "BE",
            "ngoaidmap": "gn_2802361",
            "latitude": 50.503887,
            "longitude": 4.469936
        },
        {
            "id": "D-23",
            "name": "Belize",
            "iso": "BLZ",
            "dac_status": "Upper middle income",
            "undp": "Latin America and the Caribbean",
            "continent": "North America",
            "iso2": "BZ",
            "ngoaidmap": "gn_3582678",
            "latitude": 17.189877,
            "longitude": -88.49765
        },
        {
            "id": "D-24",
            "name": "Benin",
            "iso": "BEN",
            "dac_status": "Least developed",
            "undp": "Sub-Saharan Africa",
            "continent": "Africa",
            "iso2": "BJ",
            "ngoaidmap": "gn_2395170",
            "latitude": 9.30769,
            "longitude": 2.315834
        },
        {
            "id": "D-244",
            "name": "Bermuda",
            "iso": "BMU",
            "dac_status": null,
            "undp": null,
            "continent": "North America",
            "iso2": "BM",
            "ngoaidmap": "gn_3573345",
            "latitude": 32.321384,
            "longitude": -64.75737
        },
        {
            "id": "D-26",
            "name": "Bhutan",
            "iso": "BTN",
            "dac_status": "Least developed",
            "undp": "South Asia",
            "continent": "Asia",
            "iso2": "BT",
            "ngoaidmap": "gn_1252634",
            "latitude": 27.514162,
            "longitude": 90.433601
        },
        {
            "id": "D-27",
            "name": "Bolivia",
            "iso": "BOL",
            "dac_status": "Lower middle income",
            "undp": "Latin America and the Caribbean",
            "continent": "South America",
            "iso2": "BO",
            "ngoaidmap": "gn_3923057",
            "latitude": -16.290154,
            "longitude": -63.588653
        },
        {
            "id": "D-28",
            "name": "Bosnia and Herzegovina",
            "iso": "BIH",
            "dac_status": "Upper middle income",
            "undp": "Europe and Central Asia",
            "continent": "Europe",
            "iso2": "BA",
            "ngoaidmap": "gn_3277605",
            "latitude": 43.915886,
            "longitude": 17.679076
        },
        {
            "id": "D-29",
            "name": "Botswana",
            "iso": "BWA",
            "dac_status": "Upper middle income",
            "undp": "Sub-Saharan Africa",
            "continent": "Africa",
            "iso2": "BW",
            "ngoaidmap": "gn_933860",
            "latitude": -22.328474,
            "longitude": 24.684866
        },
        {
            "id": "D-30",
            "name": "Brazil",
            "iso": "BRA",
            "dac_status": "Upper middle income",
            "undp": "Latin America and the Caribbean",
            "continent": "South America",
            "iso2": "BR",
            "ngoaidmap": "gn_3469034",
            "latitude": -14.235004,
            "longitude": -51.92528
        },
        {
            "id": "D-245",
            "name": "British Indian Ocean Territory",
            "iso": "IOT",
            "dac_status": null,
            "undp": null,
            "continent": "Asia",
            "iso2": "IO",
            "ngoaidmap": "gn_1282588",
            "latitude": -6.343194,
            "longitude": 71.876519
        },
        {
            "id": "D-246",
            "name": "British Virgin Islands",
            "iso": "VGB",
            "dac_status": null,
            "undp": null,
            "continent": "North America",
            "iso2": "VG",
            "ngoaidmap": "gn_3577718",
            "latitude": 18.420695,
            "longitude": -64.639968
        },
        {
            "id": "D-31",
            "name": "Brunei",
            "iso": "BRN",
            "dac_status": null,
            "undp": null,
            "continent": "Asia",
            "iso2": "BN",
            "ngoaidmap": "gn_1820814",
            "latitude": 4.535277,
            "longitude": 114.727669
        },
        {
            "id": "D-32",
            "name": "Bulgaria",
            "iso": "BGR",
            "dac_status": null,
            "undp": null,
            "continent": "Europe",
            "iso2": "BG",
            "ngoaidmap": "gn_732800",
            "latitude": 42.733883,
            "longitude": 25.48583
        },
        {
            "id": "D-33",
            "name": "Burkina Faso",
            "iso": "BFA",
            "dac_status": "Least developed",
            "undp": "Sub-Saharan Africa",
            "continent": "Africa",
            "iso2": "BF",
            "ngoaidmap": "gn_2361809",
            "latitude": 12.238333,
            "longitude": -1.561593
        },
        {
            "id": "D-140",
            "name": "Myanmar",
            "iso": "MMR",
            "dac_status": "Least developed",
            "undp": "East Asia and the Pacific",
            "continent": "Asia",
            "iso2": "MM",
            "ngoaidmap": "gn_1327865",
            "latitude": 21.913965,
            "longitude": 95.956223
        },
        {
            "id": "D-34",
            "name": "Burundi",
            "iso": "BDI",
            "dac_status": "Least developed",
            "undp": "Sub-Saharan Africa",
            "continent": "Africa",
            "iso2": "BI",
            "ngoaidmap": "gn_433561",
            "latitude": -3.373056,
            "longitude": 29.918886
        },
        {
            "id": "D-35",
            "name": "Cambodia",
            "iso": "KHM",
            "dac_status": "Least developed",
            "undp": "East Asia and the Pacific",
            "continent": "Asia",
            "iso2": "KH",
            "ngoaidmap": "gn_1831722",
            "latitude": 12.565679,
            "longitude": 104.990963
        },
        {
            "id": "D-36",
            "name": "Cameroon",
            "iso": "CMR",
            "dac_status": "Lower middle income",
            "undp": "Sub-Saharan Africa",
            "continent": "Africa",
            "iso2": "CM",
            "ngoaidmap": "gn_2233387",
            "latitude": 7.369722,
            "longitude": 12.354722
        },
        {
            "id": "D-37",
            "name": "Canada",
            "iso": "CAN",
            "dac_status": null,
            "undp": null,
            "continent": "North America",
            "iso2": "CA",
            "ngoaidmap": "gn_6251999",
            "latitude": 56.130366,
            "longitude": -106.346771
        },
        {
            "id": "D-38",
            "name": "Cabo Verde",
            "iso": "CPV",
            "dac_status": "Lower middle income",
            "undp": "Sub-Saharan Africa",
            "continent": "Africa",
            "iso2": "CV",
            "ngoaidmap": "gn_3374766",
            "latitude": 16.002082,
            "longitude": -24.013197
        },
        {
            "id": "D-247",
            "name": "Cayman Islands",
            "iso": "CYM",
            "dac_status": null,
            "undp": null,
            "continent": "North America",
            "iso2": "KY",
            "ngoaidmap": "gn_3580718",
            "latitude": 19.513469,
            "longitude": -80.566956
        },
        {
            "id": "D-40",
            "name": "Central African Republic",
            "iso": "CAF",
            "dac_status": "Least developed",
            "undp": "Sub-Saharan Africa",
            "continent": "Africa",
            "iso2": "CF",
            "ngoaidmap": "gn_239880",
            "latitude": 6.611111,
            "longitude": 20.939444
        },
        {
            "id": "D-41",
            "name": "Chad",
            "iso": "TCD",
            "dac_status": "Least developed",
            "undp": "Sub-Saharan Africa",
            "continent": "Africa",
            "iso2": "TD",
            "ngoaidmap": "gn_2434508",
            "latitude": 15.454166,
            "longitude": 18.732207
        },
        {
            "id": "D-42",
            "name": "Chile",
            "iso": "CHL",
            "dac_status": null,
            "undp": "Latin America and the Caribbean",
            "continent": "South America",
            "iso2": "CL",
            "ngoaidmap": "gn_3895114",
            "latitude": -35.675147,
            "longitude": -71.542969
        },
        {
            "id": "D-43",
            "name": "China",
            "iso": "CHN",
            "dac_status": "Upper middle income",
            "undp": "East Asia and the Pacific",
            "continent": "Asia",
            "iso2": "CN",
            "ngoaidmap": "gn_1814991",
            "latitude": 35.86166,
            "longitude": 104.195397
        },
        {
            "id": "D-248",
            "name": "Christmas Island",
            "iso": "CXR",
            "dac_status": null,
            "undp": null,
            "continent": "Asia",
            "iso2": "CX",
            "ngoaidmap": "gn_2078138",
            "latitude": -10.447525,
            "longitude": 105.690449
        },
        {
            "id": "D-249",
            "name": "Clipperton Island",
            "iso": "CPT",
            "dac_status": null,
            "undp": null,
            "continent": "North America",
            "iso2": "CP",
            "ngoaidmap": null,
            "latitude": 10.3,
            "longitude": -109.216667
        },
        {
            "id": "D-250",
            "name": "Cocos (Keeling) Islands",
            "iso": "CCK",
            "dac_status": null,
            "undp": null,
            "continent": "Asia",
            "iso2": "CC",
            "ngoaidmap": "gn_1547376",
            "latitude": -12.164165,
            "longitude": 96.870956
        },
        {
            "id": "D-44",
            "name": "Colombia",
            "iso": "COL",
            "dac_status": "Upper middle income",
            "undp": "Latin America and the Caribbean",
            "continent": "South America",
            "iso2": "CO",
            "ngoaidmap": "gn_3686110",
            "latitude": 4.570868,
            "longitude": -74.297333
        },
        {
            "id": "D-45",
            "name": "Comoros",
            "iso": "COM",
            "dac_status": "Least developed",
            "undp": "Sub-Saharan Africa",
            "continent": "Africa",
            "iso2": "KM",
            "ngoaidmap": "gn_921929",
            "latitude": -11.875001,
            "longitude": 43.872219
        },
        {
            "id": "D-46",
            "name": "Congo",
            "iso": "COG",
            "dac_status": "Lower middle income",
            "undp": "Sub-Saharan Africa",
            "continent": "Africa",
            "iso2": "CG",
            "ngoaidmap": "gn_2260494",
            "latitude": -0.228021,
            "longitude": 15.827659
        },
        {
            "id": "D-251",
            "name": "Cook Islands",
            "iso": "COK",
            "dac_status": "Upper middle income",
            "undp": null,
            "continent": "Oceania",
            "iso2": "CK",
            "ngoaidmap": "gn_1899402",
            "latitude": -21.236736,
            "longitude": -159.777671
        },
        {
            "id": "D-48",
            "name": "Costa Rica",
            "iso": "CRI",
            "dac_status": "Upper middle income",
            "undp": "Latin America and the Caribbean",
            "continent": "North America",
            "iso2": "CR",
            "ngoaidmap": "gn_3624060",
            "latitude": 9.748917,
            "longitude": -83.753428
        },
        {
            "id": "D-49",
            "name": "Croatia",
            "iso": "HRV",
            "dac_status": null,
            "undp": null,
            "continent": "Europe",
            "iso2": "HR",
            "ngoaidmap": "gn_3202326",
            "latitude": 45.1,
            "longitude": 15.2
        },
        {
            "id": "D-50",
            "name": "Cuba",
            "iso": "CUB",
            "dac_status": "Upper middle income",
            "undp": "Latin America and the Caribbean",
            "continent": "North America",
            "iso2": "CU",
            "ngoaidmap": "gn_3562981",
            "latitude": 21.521757,
            "longitude": -77.781167
        },
        {
            "id": "D-51",
            "name": "Cyprus",
            "iso": "CYP",
            "dac_status": null,
            "undp": null,
            "continent": "Asia",
            "iso2": "CY",
            "ngoaidmap": "gn_146669",
            "latitude": 35.126413,
            "longitude": 33.429859
        },
        {
            "id": "D-52",
            "name": "Czechia",
            "iso": "CZE",
            "dac_status": null,
            "undp": null,
            "continent": "Europe",
            "iso2": "CZ",
            "ngoaidmap": "gn_3077311",
            "latitude": 49.817492,
            "longitude": 15.472962
        },
        {
            "id": "D-226",
            "name": "Democratic Republic of the Congo",
            "iso": "COD",
            "dac_status": "Least developed",
            "undp": "Sub-Saharan Africa",
            "continent": "Africa",
            "iso2": "CD",
            "ngoaidmap": "gn_203312",
            "latitude": -4.038333,
            "longitude": 21.758664
        },
        {
            "id": "D-53",
            "name": "Denmark",
            "iso": "DNK",
            "dac_status": null,
            "undp": null,
            "continent": "Europe",
            "iso2": "DK",
            "ngoaidmap": "gn_2623032",
            "latitude": 56.26392,
            "longitude": 9.501785
        },
        {
            "id": "D-54",
            "name": "Djibouti",
            "iso": "DJI",
            "dac_status": "Least developed",
            "undp": "Arab States",
            "continent": "Africa",
            "iso2": "DJ",
            "ngoaidmap": "gn_223816",
            "latitude": 11.825138,
            "longitude": 42.590275
        },
        {
            "id": "D-55",
            "name": "Dominica",
            "iso": "DMA",
            "dac_status": "Upper middle income",
            "undp": "Latin America and the Caribbean",
            "continent": "North America",
            "iso2": "DM",
            "ngoaidmap": "gn_3575830",
            "latitude": 15.414999,
            "longitude": -61.370976
        },
        {
            "id": "D-56",
            "name": "Dominican Republic",
            "iso": "DOM",
            "dac_status": "Upper middle income",
            "undp": "Latin America and the Caribbean",
            "continent": "North America",
            "iso2": "DO",
            "ngoaidmap": "gn_3508796",
            "latitude": 18.735693,
            "longitude": -70.162651
        },
        {
            "id": "D-252",
            "name": "Easter  Island",
            "iso": "CHL",
            "dac_status": null,
            "undp": "Latin America and the Caribbean",
            "continent": "South America",
            "iso2": "CL",
            "ngoaidmap": null,
            "latitude": -35.675147,
            "longitude": -71.542969
        },
        {
            "id": "D-57",
            "name": "Ecuador",
            "iso": "ECU",
            "dac_status": "Upper middle income",
            "undp": "Latin America and the Caribbean",
            "continent": "South America",
            "iso2": "EC",
            "ngoaidmap": "gn_3658394",
            "latitude": -1.831239,
            "longitude": -78.183406
        },
        {
            "id": "D-58",
            "name": "Egypt",
            "iso": "EGY",
            "dac_status": "Lower middle income",
            "undp": "Arab States",
            "continent": "Africa",
            "iso2": "EG",
            "ngoaidmap": "gn_357994",
            "latitude": 26.820553,
            "longitude": 30.802498
        },
        {
            "id": "D-59",
            "name": "El Salvador",
            "iso": "SLV",
            "dac_status": "Lower middle income",
            "undp": "Latin America and the Caribbean",
            "continent": "North America",
            "iso2": "SV",
            "ngoaidmap": "gn_3585968",
            "latitude": 13.794185,
            "longitude": -88.89653
        },
        {
            "id": "D-60",
            "name": "Equatorial Guinea",
            "iso": "GNQ",
            "dac_status": "Upper middle income",
            "undp": "Sub-Saharan Africa",
            "continent": "Africa",
            "iso2": "GQ",
            "ngoaidmap": "gn_2309096",
            "latitude": 1.650801,
            "longitude": 10.267895
        },
        {
            "id": "D-61",
            "name": "Eritrea",
            "iso": "ERI",
            "dac_status": "Least developed",
            "undp": "Sub-Saharan Africa",
            "continent": "Africa",
            "iso2": "ER",
            "ngoaidmap": "gn_338010",
            "latitude": 15.179384,
            "longitude": 39.782334
        },
        {
            "id": "D-62",
            "name": "Estonia",
            "iso": "EST",
            "dac_status": null,
            "undp": null,
            "continent": "Europe",
            "iso2": "EE",
            "ngoaidmap": "gn_453733",
            "latitude": 58.595272,
            "longitude": 25.013607
        },
        {
            "id": "D-63",
            "name": "Ethiopia",
            "iso": "ETH",
            "dac_status": "Least developed",
            "undp": "Sub-Saharan Africa",
            "continent": "Africa",
            "iso2": "ET",
            "ngoaidmap": "gn_337996",
            "latitude": 9.145,
            "longitude": 40.489673
        },
        {
            "id": "D-253",
            "name": "Falkland Islands",
            "iso": "FLK",
            "dac_status": null,
            "undp": null,
            "continent": "South America",
            "iso2": "FK",
            "ngoaidmap": "gn_3474414",
            "latitude": -51.796253,
            "longitude": -59.523613
        },
        {
            "id": "D-254",
            "name": "Faroe Islands",
            "iso": "FRO",
            "dac_status": null,
            "undp": null,
            "continent": "Europe",
            "iso2": "FO",
            "ngoaidmap": "gn_2622320",
            "latitude": 61.892635,
            "longitude": -6.911806
        },
        {
            "id": "D-66",
            "name": "Fiji",
            "iso": "FJI",
            "dac_status": "Upper middle income",
            "undp": "East Asia and the Pacific",
            "continent": "Oceania",
            "iso2": "FJ",
            "ngoaidmap": "gn_2205218",
            "latitude": -16.578193,
            "longitude": 179.414413
        },
        {
            "id": "D-67",
            "name": "Finland",
            "iso": "FIN",
            "dac_status": null,
            "undp": null,
            "continent": "Europe",
            "iso2": "FI",
            "ngoaidmap": "gn_660013",
            "latitude": 61.92411,
            "longitude": 25.748151
        },
        {
            "id": "D-68",
            "name": "France",
            "iso": "FRA",
            "dac_status": null,
            "undp": null,
            "continent": "Europe",
            "iso2": "FR",
            "ngoaidmap": "gn_3017382",
            "latitude": 46.227638,
            "longitude": 2.213749
        },
        {
            "id": "D-255",
            "name": "French Guyana",
            "iso": "GUF",
            "dac_status": null,
            "undp": null,
            "continent": "South America",
            "iso2": "GF",
            "ngoaidmap": null,
            "latitude": 3.933889,
            "longitude": -53.125782
        },
        {
            "id": "D-256",
            "name": "French Polynesia",
            "iso": "PYF",
            "dac_status": null,
            "undp": null,
            "continent": "Oceania",
            "iso2": "PF",
            "ngoaidmap": null,
            "latitude": -17.679742,
            "longitude": -149.406843
        },
        {
            "id": "D-71",
            "name": "Gabon",
            "iso": "GAB",
            "dac_status": "Upper middle income",
            "undp": "Sub-Saharan Africa",
            "continent": "Africa",
            "iso2": "GA",
            "ngoaidmap": "gn_2400553",
            "latitude": -0.803689,
            "longitude": 11.609444
        },
        {
            "id": "D-74",
            "name": "Georgia",
            "iso": "GEO",
            "dac_status": "Lower middle income",
            "undp": "Europe and Central Asia",
            "continent": "Asia",
            "iso2": "GE",
            "ngoaidmap": "gn_614540",
            "latitude": 42.315407,
            "longitude": 43.356892
        },
        {
            "id": "D-75",
            "name": "Germany",
            "iso": "DEU",
            "dac_status": null,
            "undp": null,
            "continent": "Europe",
            "iso2": "DE",
            "ngoaidmap": "gn_2921044",
            "latitude": 51.165691,
            "longitude": 10.451526
        },
        {
            "id": "D-76",
            "name": "Ghana",
            "iso": "GHA",
            "dac_status": "Lower middle income",
            "undp": "Sub-Saharan Africa",
            "continent": "Africa",
            "iso2": "GH",
            "ngoaidmap": "gn_2300660",
            "latitude": 7.946527,
            "longitude": -1.023194
        },
        {
            "id": "D-257",
            "name": "Gibraltar",
            "iso": "GIB",
            "dac_status": null,
            "undp": null,
            "continent": "Europe",
            "iso2": "GI",
            "ngoaidmap": "gn_2411586",
            "latitude": 36.137741,
            "longitude": -5.345374
        },
        {
            "id": "D-78",
            "name": "Greece",
            "iso": "GRC",
            "dac_status": null,
            "undp": null,
            "continent": "Europe",
            "iso2": "GR",
            "ngoaidmap": "gn_390903",
            "latitude": 39.074208,
            "longitude": 21.824312
        },
        {
            "id": "D-258",
            "name": "Greenland",
            "iso": "GRL",
            "dac_status": null,
            "undp": null,
            "continent": "North America",
            "iso2": "GL",
            "ngoaidmap": "gn_3425505",
            "latitude": 71.706936,
            "longitude": -42.604303
        },
        {
            "id": "D-80",
            "name": "Grenada",
            "iso": "GRD",
            "dac_status": "Upper middle income",
            "undp": "Latin America and the Caribbean",
            "continent": "North America",
            "iso2": "GD",
            "ngoaidmap": "gn_3580239",
            "latitude": 12.262776,
            "longitude": -61.604171
        },
        {
            "id": "D-259",
            "name": "Guadeloupe",
            "iso": "GLP",
            "dac_status": null,
            "undp": null,
            "continent": "North America",
            "iso2": "GP",
            "ngoaidmap": null,
            "latitude": 16.995971,
            "longitude": -62.067641
        },
        {
            "id": "D-260",
            "name": "Guam",
            "iso": "GUM",
            "dac_status": null,
            "undp": null,
            "continent": "Oceania",
            "iso2": "GU",
            "ngoaidmap": "gn_4043988",
            "latitude": 13.444304,
            "longitude": 144.793731
        },
        {
            "id": "D-83",
            "name": "Guatemala",
            "iso": "GTM",
            "dac_status": "Lower middle income",
            "undp": "Latin America and the Caribbean",
            "continent": "North America",
            "iso2": "GT",
            "ngoaidmap": "gn_3595528",
            "latitude": 15.783471,
            "longitude": -90.230759
        },
        {
            "id": "D-261",
            "name": "Guernsey",
            "iso": "GGY",
            "dac_status": null,
            "undp": null,
            "continent": "Europe",
            "iso2": "GG",
            "ngoaidmap": "gn_3042362",
            "latitude": 49.465691,
            "longitude": -2.585278
        },
        {
            "id": "D-85",
            "name": "Guinea",
            "iso": "GIN",
            "dac_status": "Least developed",
            "undp": "Sub-Saharan Africa",
            "continent": "Africa",
            "iso2": "GN",
            "ngoaidmap": "gn_2420477",
            "latitude": 9.945587,
            "longitude": -9.696645
        },
        {
            "id": "D-86",
            "name": "Guinea-Bissau",
            "iso": "GNB",
            "dac_status": "Least developed",
            "undp": "Sub-Saharan Africa",
            "continent": "Africa",
            "iso2": "GW",
            "ngoaidmap": "gn_2372248",
            "latitude": 11.803749,
            "longitude": -15.180413
        },
        {
            "id": "D-87",
            "name": "Guyana",
            "iso": "GUY",
            "dac_status": "Upper middle income",
            "undp": "Latin America and the Caribbean",
            "continent": "South America",
            "iso2": "GY",
            "ngoaidmap": "gn_3378535",
            "latitude": 4.860416,
            "longitude": -58.93018
        },
        {
            "id": "D-88",
            "name": "Haiti",
            "iso": "HTI",
            "dac_status": "Least developed",
            "undp": "Latin America and the Caribbean",
            "continent": "North America",
            "iso2": "HT",
            "ngoaidmap": "osm_307829",
            "latitude": 18.971187,
            "longitude": -72.285215
        },
        {
            "id": "D-89",
            "name": "Honduras",
            "iso": "HND",
            "dac_status": "Lower middle income",
            "undp": "Latin America and the Caribbean",
            "continent": "North America",
            "iso2": "HN",
            "ngoaidmap": "gn_3608932",
            "latitude": 15.199999,
            "longitude": -86.241905
        },
        {
            "id": "D-262",
            "name": "Hong Kong",
            "iso": "HKG",
            "dac_status": null,
            "undp": null,
            "continent": "Asia",
            "iso2": "HK",
            "ngoaidmap": null,
            "latitude": 22.396428,
            "longitude": 114.109497
        },
        {
            "id": "D-91",
            "name": "Hungary",
            "iso": "HUN",
            "dac_status": null,
            "undp": null,
            "continent": "Europe",
            "iso2": "HU",
            "ngoaidmap": "gn_719819",
            "latitude": 47.162494,
            "longitude": 19.503304
        },
        {
            "id": "D-92",
            "name": "Iceland",
            "iso": "ISL",
            "dac_status": null,
            "undp": null,
            "continent": "Europe",
            "iso2": "IS",
            "ngoaidmap": "gn_2629691",
            "latitude": 64.963051,
            "longitude": -19.020835
        },
        {
            "id": "D-93",
            "name": "India",
            "iso": "IND",
            "dac_status": "Lower middle income",
            "undp": "South Asia",
            "continent": "Asia",
            "iso2": "IN",
            "ngoaidmap": "gn_1269750",
            "latitude": 20.593684,
            "longitude": 78.96288
        },
        {
            "id": "D-94",
            "name": "Indonesia",
            "iso": "IDN",
            "dac_status": "Lower middle income",
            "undp": "East Asia and the Pacific",
            "continent": "Asia",
            "iso2": "ID",
            "ngoaidmap": "gn_1643084",
            "latitude": -0.789275,
            "longitude": 113.921327
        },
        {
            "id": "D-95",
            "name": "Iran",
            "iso": "IRN",
            "dac_status": "Upper middle income",
            "undp": "South Asia",
            "continent": "Asia",
            "iso2": "IR",
            "ngoaidmap": "gn_130758",
            "latitude": 32.427908,
            "longitude": 53.688046
        },
        {
            "id": "D-96",
            "name": "Iraq",
            "iso": "IRQ",
            "dac_status": "Upper middle income",
            "undp": "Arab States",
            "continent": "Asia",
            "iso2": "IQ",
            "ngoaidmap": "gn_99237",
            "latitude": 33.223191,
            "longitude": 43.679291
        },
        {
            "id": "D-168",
            "name": "Ireland",
            "iso": "IRL",
            "dac_status": null,
            "undp": null,
            "continent": "Europe",
            "iso2": "IE",
            "ngoaidmap": "cust_880146",
            "latitude": 53.41291,
            "longitude": -8.24389
        },
        {
            "id": "D-263",
            "name": "Isle of Man",
            "iso": "IMN",
            "dac_status": null,
            "undp": null,
            "continent": "Europe",
            "iso2": "IM",
            "ngoaidmap": "gn_3042225",
            "latitude": 54.236107,
            "longitude": -4.548056
        },
        {
            "id": "D-97",
            "name": "Israel",
            "iso": "ISR",
            "dac_status": null,
            "undp": null,
            "continent": "Asia",
            "iso2": "IL",
            "ngoaidmap": "gn_294640",
            "latitude": 31.046051,
            "longitude": 34.851612
        },
        {
            "id": "D-98",
            "name": "Italy",
            "iso": "ITA",
            "dac_status": null,
            "undp": null,
            "continent": "Europe",
            "iso2": "IT",
            "ngoaidmap": "gn_3175395",
            "latitude": 41.87194,
            "longitude": 12.56738
        },
        {
            "id": "D-99",
            "name": "CÃ´te d'Ivoire",
            "iso": "CIV",
            "dac_status": "Lower middle income",
            "undp": "Sub-Saharan Africa",
            "continent": "Africa",
            "iso2": "CI",
            "ngoaidmap": "gn_2287781",
            "latitude": 7.539989,
            "longitude": -5.54708
        },
        {
            "id": "D-100",
            "name": "Jamaica",
            "iso": "JAM",
            "dac_status": "Upper middle income",
            "undp": "Latin America and the Caribbean",
            "continent": "North America",
            "iso2": "JM",
            "ngoaidmap": "gn_3489940",
            "latitude": 18.109581,
            "longitude": -77.297508
        },
        {
            "id": "D-264",
            "name": "Jan Mayen",
            "iso": "SJM",
            "dac_status": null,
            "undp": null,
            "continent": "Europe",
            "iso2": "SJ",
            "ngoaidmap": null,
            "latitude": 77.553604,
            "longitude": 23.670272
        },
        {
            "id": "D-101",
            "name": "Japan",
            "iso": "JPN",
            "dac_status": null,
            "undp": null,
            "continent": "Asia",
            "iso2": "JP",
            "ngoaidmap": "gn_1861060",
            "latitude": 36.204824,
            "longitude": 138.252924
        },
        {
            "id": "D-265",
            "name": "Jersey",
            "iso": "JEY",
            "dac_status": null,
            "undp": null,
            "continent": "Europe",
            "iso2": "JE",
            "ngoaidmap": "gn_3042142",
            "latitude": 49.214439,
            "longitude": -2.13125
        },
        {
            "id": "D-103",
            "name": "Jordan",
            "iso": "JOR",
            "dac_status": "Lower middle income",
            "undp": "Arab States",
            "continent": "Asia",
            "iso2": "JO",
            "ngoaidmap": "gn_248816",
            "latitude": 30.585164,
            "longitude": 36.238414
        },
        {
            "id": "D-266",
            "name": "Juan Fernandez Islands",
            "iso": "CHL",
            "dac_status": null,
            "undp": "Latin America and the Caribbean",
            "continent": "South America",
            "iso2": "CL",
            "ngoaidmap": null,
            "latitude": -35.675147,
            "longitude": -71.542969
        },
        {
            "id": "D-104",
            "name": "Kazakhstan",
            "iso": "KAZ",
            "dac_status": "Upper middle income",
            "undp": "Europe and Central Asia",
            "continent": "Asia",
            "iso2": "KZ",
            "ngoaidmap": "gn_1522867",
            "latitude": 48.019573,
            "longitude": 66.923684
        },
        {
            "id": "D-105",
            "name": "Kenya",
            "iso": "KEN",
            "dac_status": "Lower middle income",
            "undp": "Sub-Saharan Africa",
            "continent": "Africa",
            "iso2": "KE",
            "ngoaidmap": "osm_880011",
            "latitude": -0.023559,
            "longitude": 37.906193
        },
        {
            "id": "D-106",
            "name": "Kiribati",
            "iso": "KIR",
            "dac_status": "Least developed",
            "undp": "East Asia and the Pacific",
            "continent": "Oceania",
            "iso2": "KI",
            "ngoaidmap": "gn_4030945",
            "latitude": -3.370417,
            "longitude": -168.734039
        },
        {
            "id": "D-239",
            "name": "Kosovo",
            "iso": "UNK",
            "dac_status": "Lower middle income",
            "undp": null,
            "continent": "Europe",
            "iso2": "XK",
            "ngoaidmap": "gn_831053",
            "latitude": 42.602636,
            "longitude": 20.902977
        },
        {
            "id": "D-107",
            "name": "Kuwait",
            "iso": "KWT",
            "dac_status": null,
            "undp": "Arab States",
            "continent": "Asia",
            "iso2": "KW",
            "ngoaidmap": "gn_285570",
            "latitude": 29.31166,
            "longitude": 47.481766
        },
        {
            "id": "D-108",
            "name": "Kyrgyzstan",
            "iso": "KGZ",
            "dac_status": "Lower middle income",
            "undp": "Europe and Central Asia",
            "continent": "Asia",
            "iso2": "KG",
            "ngoaidmap": "gn_1527747",
            "latitude": 41.20438,
            "longitude": 74.766098
        },
        {
            "id": "D-109",
            "name": "Laos",
            "iso": "LAO",
            "dac_status": "Least developed",
            "undp": "East Asia and the Pacific",
            "continent": "Asia",
            "iso2": "LA",
            "ngoaidmap": "gn_1655842",
            "latitude": 19.85627,
            "longitude": 102.495496
        },
        {
            "id": "D-110",
            "name": "Latvia",
            "iso": "LVA",
            "dac_status": null,
            "undp": null,
            "continent": "Europe",
            "iso2": "LV",
            "ngoaidmap": "gn_458258",
            "latitude": 56.879635,
            "longitude": 24.603189
        },
        {
            "id": "D-111",
            "name": "Lebanon",
            "iso": "LBN",
            "dac_status": "Upper middle income",
            "undp": "Arab States",
            "continent": "Asia",
            "iso2": "LB",
            "ngoaidmap": "gn_272103",
            "latitude": 33.854721,
            "longitude": 35.862285
        },
        {
            "id": "D-112",
            "name": "Lesotho",
            "iso": "LSO",
            "dac_status": "Least developed",
            "undp": "Sub-Saharan Africa",
            "continent": "Africa",
            "iso2": "LS",
            "ngoaidmap": "gn_932692",
            "latitude": -29.609988,
            "longitude": 28.233608
        },
        {
            "id": "D-113",
            "name": "Liberia",
            "iso": "LBR",
            "dac_status": "Least developed",
            "undp": "Sub-Saharan Africa",
            "continent": "Africa",
            "iso2": "LR",
            "ngoaidmap": "gn_2275384",
            "latitude": 6.428055,
            "longitude": -9.429499
        },
        {
            "id": "D-114",
            "name": "Libya",
            "iso": "LBY",
            "dac_status": "Upper middle income",
            "undp": "Arab States",
            "continent": "Africa",
            "iso2": "LY",
            "ngoaidmap": "gn_2215636",
            "latitude": 26.3351,
            "longitude": 17.228331
        },
        {
            "id": "D-115",
            "name": "Liechtenstein",
            "iso": "LIE",
            "dac_status": null,
            "undp": null,
            "continent": "Europe",
            "iso2": "LI",
            "ngoaidmap": "gn_3042058",
            "latitude": 47.166,
            "longitude": 9.555373
        },
        {
            "id": "D-116",
            "name": "Lithuania",
            "iso": "LTU",
            "dac_status": null,
            "undp": null,
            "continent": "Europe",
            "iso2": "LT",
            "ngoaidmap": "gn_597427",
            "latitude": 55.169438,
            "longitude": 23.881275
        },
        {
            "id": "D-117",
            "name": "Luxembourg",
            "iso": "LUX",
            "dac_status": null,
            "undp": null,
            "continent": "Europe",
            "iso2": "LU",
            "ngoaidmap": "gn_2960313",
            "latitude": 49.815273,
            "longitude": 6.129583
        },
        {
            "id": "D-267",
            "name": "Macau",
            "iso": "MAC",
            "dac_status": null,
            "undp": null,
            "continent": "Asia",
            "iso2": "MO",
            "ngoaidmap": null,
            "latitude": 22.198745,
            "longitude": 113.543873
        },
        {
            "id": "D-119",
            "name": "North Macedonia",
            "iso": "MKD",
            "dac_status": "Upper middle income",
            "undp": "Europe and Central Asia",
            "continent": "Europe",
            "iso2": "MK",
            "ngoaidmap": "gn_718075",
            "latitude": 41.608635,
            "longitude": 21.745275
        },
        {
            "id": "D-120",
            "name": "Madagascar",
            "iso": "MDG",
            "dac_status": "Least developed",
            "undp": "Sub-Saharan Africa",
            "continent": "Africa",
            "iso2": "MG",
            "ngoaidmap": "gn_1062947",
            "latitude": -18.766947,
            "longitude": 46.869107
        },
        {
            "id": "D-122",
            "name": "Malawi",
            "iso": "MWI",
            "dac_status": "Least developed",
            "undp": "Sub-Saharan Africa",
            "continent": "Africa",
            "iso2": "MW",
            "ngoaidmap": "gn_927384",
            "latitude": -13.254308,
            "longitude": 34.301525
        },
        {
            "id": "D-123",
            "name": "Malaysia",
            "iso": "MYS",
            "dac_status": "Upper middle income",
            "undp": "East Asia and the Pacific",
            "continent": "Asia",
            "iso2": "MY",
            "ngoaidmap": "gn_1733045",
            "latitude": 4.210484,
            "longitude": 101.975766
        },
        {
            "id": "D-124",
            "name": "Maldives",
            "iso": "MDV",
            "dac_status": "Upper middle income",
            "undp": "South Asia",
            "continent": "Asia",
            "iso2": "MV",
            "ngoaidmap": "ne_880120",
            "latitude": 3.202778,
            "longitude": 73.22068
        },
        {
            "id": "D-125",
            "name": "Mali",
            "iso": "MLI",
            "dac_status": "Least developed",
            "undp": "Sub-Saharan Africa",
            "continent": "Africa",
            "iso2": "ML",
            "ngoaidmap": "gn_2453866",
            "latitude": 17.570692,
            "longitude": -3.996166
        },
        {
            "id": "D-126",
            "name": "Malta",
            "iso": "MLT",
            "dac_status": null,
            "undp": null,
            "continent": "Europe",
            "iso2": "MT",
            "ngoaidmap": "gn_2562770",
            "latitude": 35.937496,
            "longitude": 14.375416
        },
        {
            "id": "D-127",
            "name": "Marshall Islands",
            "iso": "MHL",
            "dac_status": "Upper middle income",
            "undp": "East Asia and the Pacific",
            "continent": "Oceania",
            "iso2": "MH",
            "ngoaidmap": "gn_2080185",
            "latitude": 7.131474,
            "longitude": 171.184478
        },
        {
            "id": "D-268",
            "name": "Martinique",
            "iso": "MTQ",
            "dac_status": null,
            "undp": null,
            "continent": "North America",
            "iso2": "MQ",
            "ngoaidmap": null,
            "latitude": 14.641528,
            "longitude": -61.024174
        },
        {
            "id": "D-129",
            "name": "Mauritania",
            "iso": "MRT",
            "dac_status": "Least developed",
            "undp": "Sub-Saharan Africa",
            "continent": "Africa",
            "iso2": "MR",
            "ngoaidmap": "gn_2378080",
            "latitude": 21.00789,
            "longitude": -10.940835
        },
        {
            "id": "D-130",
            "name": "Mauritius",
            "iso": "MUS",
            "dac_status": "Upper middle income",
            "undp": "Sub-Saharan Africa",
            "continent": "Africa",
            "iso2": "MU",
            "ngoaidmap": "gn_934292",
            "latitude": -20.348404,
            "longitude": 57.552152
        },
        {
            "id": "D-269",
            "name": "Mayotte",
            "iso": "MYT",
            "dac_status": null,
            "undp": null,
            "continent": "Africa",
            "iso2": "YT",
            "ngoaidmap": null,
            "latitude": -12.8275,
            "longitude": 45.166244
        },
        {
            "id": "D-132",
            "name": "Mexico",
            "iso": "MEX",
            "dac_status": "Upper middle income",
            "undp": "Latin America and the Caribbean",
            "continent": "North America",
            "iso2": "MX",
            "ngoaidmap": "gn_3996063",
            "latitude": 23.634501,
            "longitude": -102.552784
        },
        {
            "id": "D-133",
            "name": "Micronesia",
            "iso": "FSM",
            "dac_status": "Lower middle income",
            "undp": "East Asia and the Pacific",
            "continent": "Oceania",
            "iso2": "FM",
            "ngoaidmap": "gn_2081918",
            "latitude": 7.425554,
            "longitude": 150.550812
        },
        {
            "id": "D-134",
            "name": "Moldova",
            "iso": "MDA",
            "dac_status": "Lower middle income",
            "undp": "Europe and Central Asia",
            "continent": "Europe",
            "iso2": "MD",
            "ngoaidmap": "gn_617790",
            "latitude": 47.411631,
            "longitude": 28.369885
        },
        {
            "id": "D-135",
            "name": "Monaco",
            "iso": "MCO",
            "dac_status": null,
            "undp": null,
            "continent": "Europe",
            "iso2": "MC",
            "ngoaidmap": "gn_2993457",
            "latitude": 43.750298,
            "longitude": 7.412841
        },
        {
            "id": "D-136",
            "name": "Mongolia",
            "iso": "MNG",
            "dac_status": "Lower middle income",
            "undp": "East Asia and the Pacific",
            "continent": "Asia",
            "iso2": "MN",
            "ngoaidmap": "gn_2029969",
            "latitude": 46.862496,
            "longitude": 103.846656
        },
        {
            "id": "D-233",
            "name": "Montenegro",
            "iso": "MNE",
            "dac_status": "Upper middle income",
            "undp": "Europe and Central Asia",
            "continent": "Europe",
            "iso2": "ME",
            "ngoaidmap": "gn_3194884",
            "latitude": 42.708678,
            "longitude": 19.37439
        },
        {
            "id": "D-270",
            "name": "Montserrat",
            "iso": "MSR",
            "dac_status": "Upper middle income",
            "undp": null,
            "continent": "North America",
            "iso2": "MS",
            "ngoaidmap": "gn_3578097",
            "latitude": 16.742498,
            "longitude": -62.187366
        },
        {
            "id": "D-138",
            "name": "Morocco",
            "iso": "MAR",
            "dac_status": "Lower middle income",
            "undp": "Arab States",
            "continent": "Africa",
            "iso2": "MA",
            "ngoaidmap": "gn_2542007",
            "latitude": 31.791702,
            "longitude": -7.09262
        },
        {
            "id": "D-139",
            "name": "Mozambique",
            "iso": "MOZ",
            "dac_status": "Least developed",
            "undp": "Sub-Saharan Africa",
            "continent": "Africa",
            "iso2": "MZ",
            "ngoaidmap": "gn_1036973",
            "latitude": -18.665695,
            "longitude": 35.529562
        },
        {
            "id": "D-141",
            "name": "Namibia",
            "iso": "NAM",
            "dac_status": "Upper middle income",
            "undp": "Sub-Saharan Africa",
            "continent": "Africa",
            "iso2": "NA",
            "ngoaidmap": "gn_3355338",
            "latitude": -22.95764,
            "longitude": 18.49041
        },
        {
            "id": "D-142",
            "name": "Nauru",
            "iso": "NRU",
            "dac_status": "Upper middle income",
            "undp": "East Asia and the Pacific",
            "continent": "Oceania",
            "iso2": "NR",
            "ngoaidmap": "gn_2110425",
            "latitude": -0.522778,
            "longitude": 166.931503
        },
        {
            "id": "D-143",
            "name": "Nepal",
            "iso": "NPL",
            "dac_status": "Least developed",
            "undp": "South Asia",
            "continent": "Asia",
            "iso2": "NP",
            "ngoaidmap": "gn_1282988",
            "latitude": 28.394857,
            "longitude": 84.124008
        },
        {
            "id": "D-144",
            "name": "Netherlands",
            "iso": "NLD",
            "dac_status": null,
            "undp": null,
            "continent": "Europe",
            "iso2": "NL",
            "ngoaidmap": "gn_2750405",
            "latitude": 52.132633,
            "longitude": 5.291266
        },
        {
            "id": "D-271",
            "name": "Netherlands Antilles",
            "iso": "ANT",
            "dac_status": null,
            "undp": null,
            "continent": "North America",
            "iso2": "AN",
            "ngoaidmap": null,
            "latitude": 12.226079,
            "longitude": -69.060087
        },
        {
            "id": "D-272",
            "name": "New Caledonia",
            "iso": "NCL",
            "dac_status": null,
            "undp": null,
            "continent": "Oceania",
            "iso2": "NC",
            "ngoaidmap": "gn_2139685",
            "latitude": -20.904305,
            "longitude": 165.618042
        },
        {
            "id": "D-147",
            "name": "New Zealand",
            "iso": "NZL",
            "dac_status": null,
            "undp": null,
            "continent": "Oceania",
            "iso2": "NZ",
            "ngoaidmap": "gn_2186224",
            "latitude": -40.900557,
            "longitude": 174.885971
        },
        {
            "id": "D-148",
            "name": "Nicaragua",
            "iso": "NIC",
            "dac_status": "Lower middle income",
            "undp": "Latin America and the Caribbean",
            "continent": "North America",
            "iso2": "NI",
            "ngoaidmap": "gn_3617476",
            "latitude": 12.865416,
            "longitude": -85.207229
        },
        {
            "id": "D-149",
            "name": "Niger",
            "iso": "NER",
            "dac_status": "Least developed",
            "undp": "Sub-Saharan Africa",
            "continent": "Africa",
            "iso2": "NE",
            "ngoaidmap": "gn_2440476",
            "latitude": 17.607789,
            "longitude": 8.081666
        },
        {
            "id": "D-150",
            "name": "Nigeria",
            "iso": "NGA",
            "dac_status": "Lower middle income",
            "undp": "Sub-Saharan Africa",
            "continent": "Africa",
            "iso2": "NG",
            "ngoaidmap": "gn_2328926",
            "latitude": 9.081999,
            "longitude": 8.675277
        },
        {
            "id": "D-273",
            "name": "Niue",
            "iso": "NIU",
            "dac_status": "Upper middle income",
            "undp": null,
            "continent": "Oceania",
            "iso2": "NU",
            "ngoaidmap": "gn_4036232",
            "latitude": -19.054445,
            "longitude": -169.867233
        },
        {
            "id": "D-274",
            "name": "Norfolk Island",
            "iso": "NFK",
            "dac_status": null,
            "undp": null,
            "continent": "Oceania",
            "iso2": "NF",
            "ngoaidmap": "gn_2155115",
            "latitude": -29.040835,
            "longitude": 167.954712
        },
        {
            "id": "D-152",
            "name": "North Korea",
            "iso": "PRK",
            "dac_status": "Other low income",
            "undp": "East Asia and the Pacific",
            "continent": "Asia",
            "iso2": "KP",
            "ngoaidmap": "gn_1873107",
            "latitude": 40.339852,
            "longitude": 127.510093
        },
        {
            "id": "D-235",
            "name": "Northern Ireland",
            "iso": "GBR",
            "dac_status": null,
            "undp": null,
            "continent": "Europe",
            "iso2": "GB",
            "ngoaidmap": "gn_2635167",
            "latitude": 55.378051,
            "longitude": -3.435973
        },
        {
            "id": "D-275",
            "name": "Northern Mariana Island",
            "iso": "MNP",
            "dac_status": null,
            "undp": null,
            "continent": "Oceania",
            "iso2": "MP",
            "ngoaidmap": "gn_4041468",
            "latitude": 17.33083,
            "longitude": 145.38469
        },
        {
            "id": "D-154",
            "name": "Norway",
            "iso": "NOR",
            "dac_status": null,
            "undp": null,
            "continent": "Europe",
            "iso2": "NO",
            "ngoaidmap": "gn_3144096",
            "latitude": 60.472024,
            "longitude": 8.468946
        },
        {
            "id": "D-238",
            "name": "Occupied Palestinian Territories",
            "iso": "PSE",
            "dac_status": "Lower middle income",
            "undp": "Arab States",
            "continent": "Asia",
            "iso2": "PS",
            "ngoaidmap": "gn_6254930",
            "latitude": 31.952162,
            "longitude": 35.233154
        },
        {
            "id": "D-155",
            "name": "Oman",
            "iso": "OMN",
            "dac_status": null,
            "undp": "Arab States",
            "continent": "Asia",
            "iso2": "OM",
            "ngoaidmap": "gn_286963",
            "latitude": 21.512583,
            "longitude": 55.923255
        },
        {
            "id": "D-156",
            "name": "Pakistan",
            "iso": "PAK",
            "dac_status": "Lower middle income",
            "undp": "South Asia",
            "continent": "Asia",
            "iso2": "PK",
            "ngoaidmap": "gn_1168579",
            "latitude": 30.375321,
            "longitude": 69.345116
        },
        {
            "id": "D-157",
            "name": "Palau",
            "iso": "PLW",
            "dac_status": "Upper middle income",
            "undp": "East Asia and the Pacific",
            "continent": "Oceania",
            "iso2": "PW",
            "ngoaidmap": "gn_1559582",
            "latitude": 7.51498,
            "longitude": 134.58252
        },
        {
            "id": "D-159",
            "name": "Panama",
            "iso": "PAN",
            "dac_status": "Upper middle income",
            "undp": "Latin America and the Caribbean",
            "continent": "North America",
            "iso2": "PA",
            "ngoaidmap": "gn_3703430",
            "latitude": 8.537981,
            "longitude": -80.782127
        },
        {
            "id": "D-160",
            "name": "Papua New Guinea",
            "iso": "PNG",
            "dac_status": "Lower middle income",
            "undp": "East Asia and the Pacific",
            "continent": "Oceania",
            "iso2": "PG",
            "ngoaidmap": "gn_2088628",
            "latitude": -6.314993,
            "longitude": 143.95555
        },
        {
            "id": "D-161",
            "name": "Paraguay",
            "iso": "PRY",
            "dac_status": "Upper middle income",
            "undp": "Latin America and the Caribbean",
            "continent": "South America",
            "iso2": "PY",
            "ngoaidmap": "gn_3437598",
            "latitude": -23.442503,
            "longitude": -58.443832
        },
        {
            "id": "D-162",
            "name": "Peru",
            "iso": "PER",
            "dac_status": "Upper middle income",
            "undp": "Latin America and the Caribbean",
            "continent": "South America",
            "iso2": "PE",
            "ngoaidmap": "gn_3932488",
            "latitude": -9.189967,
            "longitude": -75.015152
        },
        {
            "id": "D-163",
            "name": "Philippines",
            "iso": "PHL",
            "dac_status": "Lower middle income",
            "undp": "East Asia and the Pacific",
            "continent": "Asia",
            "iso2": "PH",
            "ngoaidmap": "gn_1694008",
            "latitude": 12.879721,
            "longitude": 121.774017
        },
        {
            "id": "D-276",
            "name": "Pitcairn Islands",
            "iso": "PCN",
            "dac_status": null,
            "undp": null,
            "continent": "Oceania",
            "iso2": "PN",
            "ngoaidmap": null,
            "latitude": -24.703615,
            "longitude": -127.439308
        },
        {
            "id": "D-164",
            "name": "Poland",
            "iso": "POL",
            "dac_status": null,
            "undp": null,
            "continent": "Europe",
            "iso2": "PL",
            "ngoaidmap": "gn_798544",
            "latitude": 51.919438,
            "longitude": 19.145136
        },
        {
            "id": "D-165",
            "name": "Portugal",
            "iso": "PRT",
            "dac_status": null,
            "undp": null,
            "continent": "Europe",
            "iso2": "PT",
            "ngoaidmap": "gn_2264397",
            "latitude": 39.399872,
            "longitude": -8.224454
        },
        {
            "id": "D-277",
            "name": "Puerto Rico",
            "iso": "PRI",
            "dac_status": null,
            "undp": null,
            "continent": "North America",
            "iso2": "PR",
            "ngoaidmap": "gn_4566966",
            "latitude": 18.220833,
            "longitude": -66.590149
        },
        {
            "id": "D-167",
            "name": "Qatar",
            "iso": "QAT",
            "dac_status": null,
            "undp": "Arab States",
            "continent": "Asia",
            "iso2": "QA",
            "ngoaidmap": "gn_289688",
            "latitude": 25.354826,
            "longitude": 51.183884
        },
        {
            "id": "D-293",
            "name": "South Sudan",
            "iso": "SSD",
            "dac_status": "Least developed",
            "undp": "Sub-Saharan Africa",
            "continent": "Africa",
            "iso2": "SS",
            "ngoaidmap": "gn_7909807",
            "latitude": 6.806,
            "longitude": 29.676
        },
        {
            "id": "D-278",
            "name": "Reunion",
            "iso": "REU",
            "dac_status": null,
            "undp": null,
            "continent": "Africa",
            "iso2": "RE",
            "ngoaidmap": null,
            "latitude": -21.115141,
            "longitude": 55.536384
        },
        {
            "id": "D-170",
            "name": "Romania",
            "iso": "ROU",
            "dac_status": null,
            "undp": null,
            "continent": "Europe",
            "iso2": "RO",
            "ngoaidmap": "gn_798549",
            "latitude": 45.943161,
            "longitude": 24.96676
        },
        {
            "id": "D-279",
            "name": "Ross Dependency",
            "iso": "ATA",
            "dac_status": null,
            "undp": null,
            "continent": "Antarctica",
            "iso2": "AQ",
            "ngoaidmap": null,
            "latitude": -75.250973,
            "longitude": -0.071389
        },
        {
            "id": "D-171",
            "name": "Russia",
            "iso": "RUS",
            "dac_status": null,
            "undp": null,
            "continent": "Europe",
            "iso2": "RU",
            "ngoaidmap": "gn_2017370",
            "latitude": 61.52401,
            "longitude": 105.318756
        },
        {
            "id": "D-172",
            "name": "Rwanda",
            "iso": "RWA",
            "dac_status": "Least developed",
            "undp": "Sub-Saharan Africa",
            "continent": "Africa",
            "iso2": "RW",
            "ngoaidmap": "gn_49518",
            "latitude": -1.940278,
            "longitude": 29.873888
        },
        {
            "id": "D-177",
            "name": "Samoa",
            "iso": "WSM",
            "dac_status": "Upper middle income",
            "undp": "East Asia and the Pacific",
            "continent": "Oceania",
            "iso2": "WS",
            "ngoaidmap": "gn_4034894",
            "latitude": -13.759029,
            "longitude": -172.104629
        },
        {
            "id": "D-178",
            "name": "San Marino",
            "iso": "SMR",
            "dac_status": null,
            "undp": null,
            "continent": "Europe",
            "iso2": "SM",
            "ngoaidmap": "gn_3168068",
            "latitude": 43.94236,
            "longitude": 12.457777
        },
        {
            "id": "D-179",
            "name": "Sao Tome and Principe",
            "iso": "STP",
            "dac_status": "Least developed",
            "undp": "Sub-Saharan Africa",
            "continent": "Africa",
            "iso2": "ST",
            "ngoaidmap": "gn_2410758",
            "latitude": 0.18636,
            "longitude": 6.613081
        },
        {
            "id": "D-180",
            "name": "Saudi Arabia",
            "iso": "SAU",
            "dac_status": null,
            "undp": "Arab States",
            "continent": "Asia",
            "iso2": "SA",
            "ngoaidmap": "gn_102358",
            "latitude": 23.885942,
            "longitude": 45.079162
        },
        {
            "id": "D-234",
            "name": "Scotland",
            "iso": "GBR",
            "dac_status": null,
            "undp": null,
            "continent": "Europe",
            "iso2": "GB",
            "ngoaidmap": "gn_2635167",
            "latitude": 55.378051,
            "longitude": -3.435973
        },
        {
            "id": "D-181",
            "name": "Senegal",
            "iso": "SEN",
            "dac_status": "Least developed",
            "undp": "Sub-Saharan Africa",
            "continent": "Africa",
            "iso2": "SN",
            "ngoaidmap": "gn_2245662",
            "latitude": 14.497401,
            "longitude": -14.452362
        },
        {
            "id": "D-225",
            "name": "Serbia",
            "iso": "SRB",
            "dac_status": "Upper middle income",
            "undp": "Europe and Central Asia",
            "continent": "Europe",
            "iso2": "RS",
            "ngoaidmap": "gn_6290252",
            "latitude": 44.016521,
            "longitude": 21.005859
        },
        {
            "id": "D-182",
            "name": "Seychelles",
            "iso": "SYC",
            "dac_status": null,
            "undp": "Sub-Saharan Africa",
            "continent": "Africa",
            "iso2": "SC",
            "ngoaidmap": "gn_241170",
            "latitude": -4.679574,
            "longitude": 55.491977
        },
        {
            "id": "D-183",
            "name": "Sierra Leone",
            "iso": "SLE",
            "dac_status": "Least developed",
            "undp": "Sub-Saharan Africa",
            "continent": "Africa",
            "iso2": "SL",
            "ngoaidmap": "gn_2403846",
            "latitude": 8.460555,
            "longitude": -11.779889
        },
        {
            "id": "D-184",
            "name": "Singapore",
            "iso": "SGP",
            "dac_status": null,
            "undp": null,
            "continent": "Asia",
            "iso2": "SG",
            "ngoaidmap": "gn_1880251",
            "latitude": 1.352083,
            "longitude": 103.819836
        },
        {
            "id": "D-185",
            "name": "Slovakia",
            "iso": "SVK",
            "dac_status": null,
            "undp": null,
            "continent": "Europe",
            "iso2": "SK",
            "ngoaidmap": "gn_3057568",
            "latitude": 48.669026,
            "longitude": 19.699024
        },
        {
            "id": "D-186",
            "name": "Slovenia",
            "iso": "SVN",
            "dac_status": null,
            "undp": null,
            "continent": "Europe",
            "iso2": "SI",
            "ngoaidmap": "gn_3190538",
            "latitude": 46.151241,
            "longitude": 14.995463
        },
        {
            "id": "D-187",
            "name": "Solomon Islands",
            "iso": "SLB",
            "dac_status": "Least developed",
            "undp": "East Asia and the Pacific",
            "continent": "Oceania",
            "iso2": "SB",
            "ngoaidmap": "gn_2103350",
            "latitude": -9.64571,
            "longitude": 160.156194
        },
        {
            "id": "D-188",
            "name": "Somalia",
            "iso": "SOM",
            "dac_status": "Least developed",
            "undp": "Arab States",
            "continent": "Africa",
            "iso2": "SO",
            "ngoaidmap": "gn_51537",
            "latitude": 5.152149,
            "longitude": 46.199616
        },
        {
            "id": "D-189",
            "name": "South Africa",
            "iso": "ZAF",
            "dac_status": "Upper middle income",
            "undp": "Sub-Saharan Africa",
            "continent": "Africa",
            "iso2": "ZA",
            "ngoaidmap": "gn_953987",
            "latitude": -30.559482,
            "longitude": 22.937506
        },
        {
            "id": "D-284",
            "name": "South Georgia",
            "iso": "SGS",
            "dac_status": null,
            "undp": null,
            "continent": "Antarctica",
            "iso2": "GS",
            "ngoaidmap": "gn_3474415",
            "latitude": -54.429579,
            "longitude": -36.587909
        },
        {
            "id": "D-190",
            "name": "South Korea",
            "iso": "KOR",
            "dac_status": null,
            "undp": null,
            "continent": "Asia",
            "iso2": "KR",
            "ngoaidmap": "gn_1835841",
            "latitude": 35.907757,
            "longitude": 127.766922
        },
        {
            "id": "D-191",
            "name": "Spain",
            "iso": "ESP",
            "dac_status": null,
            "undp": null,
            "continent": "Europe",
            "iso2": "ES",
            "ngoaidmap": "gn_2510769",
            "latitude": 40.463667,
            "longitude": -3.74922
        },
        {
            "id": "D-192",
            "name": "Sri Lanka",
            "iso": "LKA",
            "dac_status": "Lower middle income",
            "undp": "South Asia",
            "continent": "Asia",
            "iso2": "LK",
            "ngoaidmap": "gn_1227603",
            "latitude": 7.873054,
            "longitude": 80.771797
        },
        {
            "id": "D-280",
            "name": "St Barthelemy",
            "iso": "BLM",
            "dac_status": null,
            "undp": null,
            "continent": "North America",
            "iso2": "BL",
            "ngoaidmap": null,
            "latitude": 17.9,
            "longitude": -62.833333
        },
        {
            "id": "D-281",
            "name": "St Helena",
            "iso": "SHN",
            "dac_status": "Upper middle income",
            "undp": null,
            "continent": "Africa",
            "iso2": "SH",
            "ngoaidmap": "gn_3370751",
            "latitude": -24.143474,
            "longitude": -10.030696
        },
        {
            "id": "D-174",
            "name": "St Kitts-Nevis",
            "iso": "KNA",
            "dac_status": null,
            "undp": "Latin America and the Caribbean",
            "continent": "North America",
            "iso2": "KN",
            "ngoaidmap": "gn_3575174",
            "latitude": 17.357822,
            "longitude": -62.782998
        },
        {
            "id": "D-175",
            "name": "St Lucia",
            "iso": "LCA",
            "dac_status": "Upper middle income",
            "undp": "Latin America and the Caribbean",
            "continent": "North America",
            "iso2": "LC",
            "ngoaidmap": "gn_3576468",
            "latitude": 13.909444,
            "longitude": -60.978893
        },
        {
            "id": "D-282",
            "name": "St Martin",
            "iso": "MAF",
            "dac_status": null,
            "undp": null,
            "continent": "North America",
            "iso2": "MF",
            "ngoaidmap": "gn_7609695",
            "latitude": 18.066667,
            "longitude": -63.05
        },
        {
            "id": "D-283",
            "name": "St Pierre and Miquelon",
            "iso": "SPM",
            "dac_status": null,
            "undp": null,
            "continent": "North America",
            "iso2": "PM",
            "ngoaidmap": null,
            "latitude": 46.941936,
            "longitude": -56.27111
        },
        {
            "id": "D-176",
            "name": "St Vincent and Grenadines",
            "iso": "VCT",
            "dac_status": "Upper middle income",
            "undp": "Latin America and the Caribbean",
            "continent": "North America",
            "iso2": "VC",
            "ngoaidmap": "gn_3577815",
            "latitude": 12.984305,
            "longitude": -61.287228
        },
        {
            "id": "D-193",
            "name": "Sudan",
            "iso": "SDN",
            "dac_status": "Least developed",
            "undp": "Arab States",
            "continent": "Africa",
            "iso2": "SD",
            "ngoaidmap": "gn_366755",
            "latitude": 16.609318,
            "longitude": 30.397653
        },
        {
            "id": "D-194",
            "name": "Surinam",
            "iso": "SUR",
            "dac_status": "Upper middle income",
            "undp": "Latin America and the Caribbean",
            "continent": "South America",
            "iso2": "SR",
            "ngoaidmap": "gn_3382998",
            "latitude": 3.919305,
            "longitude": -56.027783
        },
        {
            "id": "D-285",
            "name": "Svalbard",
            "iso": "SJM",
            "dac_status": null,
            "undp": null,
            "continent": "Europe",
            "iso2": "SJ",
            "ngoaidmap": "cust_880142",
            "latitude": 77.553604,
            "longitude": 23.670272
        },
        {
            "id": "D-195",
            "name": "Eswatini",
            "iso": "SWZ",
            "dac_status": "Lower middle income",
            "undp": "Sub-Saharan Africa",
            "continent": "Africa",
            "iso2": "SZ",
            "ngoaidmap": "gn_934841",
            "latitude": -26.522503,
            "longitude": 31.465866
        },
        {
            "id": "D-196",
            "name": "Sweden",
            "iso": "SWE",
            "dac_status": null,
            "undp": null,
            "continent": "Europe",
            "iso2": "SE",
            "ngoaidmap": "gn_2661886",
            "latitude": 60.128161,
            "longitude": 18.643501
        },
        {
            "id": "D-197",
            "name": "Switzerland",
            "iso": "CHE",
            "dac_status": null,
            "undp": null,
            "continent": "Europe",
            "iso2": "CH",
            "ngoaidmap": "gn_2658434",
            "latitude": 46.818188,
            "longitude": 8.227512
        },
        {
            "id": "D-198",
            "name": "Syria",
            "iso": "SYR",
            "dac_status": "Lower middle income",
            "undp": "Arab States",
            "continent": "Asia",
            "iso2": "SY",
            "ngoaidmap": "gn_163843",
            "latitude": 34.802075,
            "longitude": 38.996815
        },
        {
            "id": "D-286",
            "name": "Taiwan",
            "iso": "TWN",
            "dac_status": null,
            "undp": null,
            "continent": "Asia",
            "iso2": "TW",
            "ngoaidmap": "gn_1668284",
            "latitude": 23.69781,
            "longitude": 120.960515
        },
        {
            "id": "D-200",
            "name": "Tajikistan",
            "iso": "TJK",
            "dac_status": "Lower middle income",
            "undp": "Europe and Central Asia",
            "continent": "Asia",
            "iso2": "TJ",
            "ngoaidmap": "gn_1220409",
            "latitude": 38.861034,
            "longitude": 71.276093
        },
        {
            "id": "D-201",
            "name": "Tanzania",
            "iso": "TZA",
            "dac_status": "Least developed",
            "undp": "Sub-Saharan Africa",
            "continent": "Africa",
            "iso2": "TZ",
            "ngoaidmap": "gn_149590",
            "latitude": -6.369028,
            "longitude": 34.888822
        },
        {
            "id": "D-202",
            "name": "Thailand",
            "iso": "THA",
            "dac_status": "Upper middle income",
            "undp": "East Asia and the Pacific",
            "continent": "Asia",
            "iso2": "TH",
            "ngoaidmap": "gn_1605651",
            "latitude": 15.870032,
            "longitude": 100.992541
        },
        {
            "id": "D-72",
            "name": "The Gambia",
            "iso": "GMB",
            "dac_status": "Least developed",
            "undp": "Sub-Saharan Africa",
            "continent": "Africa",
            "iso2": "GM",
            "ngoaidmap": "gn_2413451",
            "latitude": 13.443182,
            "longitude": -15.310139
        },
        {
            "id": "D-237",
            "name": "Timor-Leste",
            "iso": "TLS",
            "dac_status": "Least developed",
            "undp": "East Asia and the Pacific",
            "continent": "Asia",
            "iso2": "TL",
            "ngoaidmap": "gn_1966436",
            "latitude": -8.874217,
            "longitude": 125.727539
        },
        {
            "id": "D-204",
            "name": "Togo",
            "iso": "TGO",
            "dac_status": "Least developed",
            "undp": "Sub-Saharan Africa",
            "continent": "Africa",
            "iso2": "TG",
            "ngoaidmap": "gn_2363686",
            "latitude": 8.619543,
            "longitude": 0.824782
        },
        {
            "id": "D-287",
            "name": "Tokelau",
            "iso": "TKL",
            "dac_status": "Lower middle income",
            "undp": null,
            "continent": "Oceania",
            "iso2": "TK",
            "ngoaidmap": "gn_4031074",
            "latitude": -8.967363,
            "longitude": -171.855881
        },
        {
            "id": "D-205",
            "name": "Tonga",
            "iso": "TON",
            "dac_status": "Upper middle income",
            "undp": "East Asia and the Pacific",
            "continent": "Oceania",
            "iso2": "TO",
            "ngoaidmap": "gn_4032283",
            "latitude": -21.178986,
            "longitude": -175.198242
        },
        {
            "id": "D-206",
            "name": "Trinidad and Tobago",
            "iso": "TTO",
            "dac_status": null,
            "undp": "Latin America and the Caribbean",
            "continent": "North America",
            "iso2": "TT",
            "ngoaidmap": "gn_3573591",
            "latitude": 10.691803,
            "longitude": -61.222503
        },
        {
            "id": "D-207",
            "name": "Tunisia",
            "iso": "TUN",
            "dac_status": "Lower middle income",
            "undp": "Arab States",
            "continent": "Africa",
            "iso2": "TN",
            "ngoaidmap": "gn_2464461",
            "latitude": 33.886917,
            "longitude": 9.537499
        },
        {
            "id": "D-208",
            "name": "Turkey",
            "iso": "TUR",
            "dac_status": "Upper middle income",
            "undp": "Europe and Central Asia",
            "continent": "Asia",
            "iso2": "TR",
            "ngoaidmap": "gn_298795",
            "latitude": 38.963745,
            "longitude": 35.243322
        },
        {
            "id": "D-209",
            "name": "Turkmenistan",
            "iso": "TKM",
            "dac_status": "Upper middle income",
            "undp": "Europe and Central Asia",
            "continent": "Asia",
            "iso2": "TM",
            "ngoaidmap": "gn_1218197",
            "latitude": 38.969719,
            "longitude": 59.556278
        },
        {
            "id": "D-288",
            "name": "Turks and Caicos Islands",
            "iso": "TCA",
            "dac_status": null,
            "undp": null,
            "continent": "North America",
            "iso2": "TC",
            "ngoaidmap": "gn_3576916",
            "latitude": 21.694025,
            "longitude": -71.797928
        },
        {
            "id": "D-211",
            "name": "Tuvalu",
            "iso": "TUV",
            "dac_status": "Least developed",
            "undp": "East Asia and the Pacific",
            "continent": "Oceania",
            "iso2": "TV",
            "ngoaidmap": "gn_2110297",
            "latitude": -7.109535,
            "longitude": 177.64933
        },
        {
            "id": "D-289",
            "name": "U.S. Virgin Islands",
            "iso": "VIR",
            "dac_status": null,
            "undp": null,
            "continent": "North America",
            "iso2": "VI",
            "ngoaidmap": "gn_4796775",
            "latitude": 18.335765,
            "longitude": -64.896335
        },
        {
            "id": "D-212",
            "name": "Uganda",
            "iso": "UGA",
            "dac_status": "Least developed",
            "undp": "Sub-Saharan Africa",
            "continent": "Africa",
            "iso2": "UG",
            "ngoaidmap": "gn_226074",
            "latitude": 1.373333,
            "longitude": 32.290275
        },
        {
            "id": "D-213",
            "name": "Ukraine",
            "iso": "UKR",
            "dac_status": "Lower middle income",
            "undp": "Europe and Central Asia",
            "continent": "Europe",
            "iso2": "UA",
            "ngoaidmap": "gn_690791",
            "latitude": 48.379433,
            "longitude": 31.16558
        },
        {
            "id": "D-214",
            "name": "United Arab Emirates",
            "iso": "ARE",
            "dac_status": null,
            "undp": "Arab States",
            "continent": "Asia",
            "iso2": "AE",
            "ngoaidmap": "gn_290557",
            "latitude": 23.424076,
            "longitude": 53.847818
        },
        {
            "id": "D-216",
            "name": "United States",
            "iso": "USA",
            "dac_status": null,
            "undp": null,
            "continent": "North America",
            "iso2": "US",
            "ngoaidmap": "gn_6252001",
            "latitude": 37.09024,
            "longitude": -95.712891
        },
        {
            "id": "D-217",
            "name": "Uruguay",
            "iso": "URY",
            "dac_status": null,
            "undp": "Latin America and the Caribbean",
            "continent": "South America",
            "iso2": "UY",
            "ngoaidmap": "gn_3439705",
            "latitude": -32.522779,
            "longitude": -55.765835
        },
        {
            "id": "D-218",
            "name": "Uzbekistan",
            "iso": "UZB",
            "dac_status": "Lower middle income",
            "undp": "Europe and Central Asia",
            "continent": "Asia",
            "iso2": "UZ",
            "ngoaidmap": "gn_1512440",
            "latitude": 41.377491,
            "longitude": 64.585262
        },
        {
            "id": "D-219",
            "name": "Vanuatu",
            "iso": "VUT",
            "dac_status": "Least developed",
            "undp": "East Asia and the Pacific",
            "continent": "Oceania",
            "iso2": "VU",
            "ngoaidmap": "gn_2134431",
            "latitude": -15.376706,
            "longitude": 166.959158
        },
        {
            "id": "D-221",
            "name": "Venezuela",
            "iso": "VEN",
            "dac_status": "Upper middle income",
            "undp": "Latin America and the Caribbean",
            "continent": "South America",
            "iso2": "VE",
            "ngoaidmap": "gn_3625428",
            "latitude": 6.42375,
            "longitude": -66.58973
        },
        {
            "id": "D-222",
            "name": "Vietnam",
            "iso": "VNM",
            "dac_status": "Lower middle income",
            "undp": "East Asia and the Pacific",
            "continent": "Asia",
            "iso2": "VN",
            "ngoaidmap": "gn_1562822",
            "latitude": 14.058324,
            "longitude": 108.277199
        },
        {
            "id": "D-290",
            "name": "Wallis and Futuna",
            "iso": "WLF",
            "dac_status": "Upper middle income",
            "undp": null,
            "continent": "Oceania",
            "iso2": "WF",
            "ngoaidmap": null,
            "latitude": -13.768752,
            "longitude": -177.156097
        },
        {
            "id": "D-224",
            "name": "Yemen",
            "iso": "YEM",
            "dac_status": "Least developed",
            "undp": "Arab States",
            "continent": "Asia",
            "iso2": "YE",
            "ngoaidmap": "gn_69543",
            "latitude": 15.552727,
            "longitude": 48.516388
        },
        {
            "id": "D-227",
            "name": "Zambia",
            "iso": "ZMB",
            "dac_status": "Least developed",
            "undp": "Sub-Saharan Africa",
            "continent": "Africa",
            "iso2": "ZM",
            "ngoaidmap": "gn_895949",
            "latitude": -13.133897,
            "longitude": 27.849332
        },
        {
            "id": "D-228",
            "name": "Zimbabwe",
            "iso": "ZWE",
            "dac_status": "Other low income",
            "undp": "Sub-Saharan Africa",
            "continent": "Africa",
            "iso2": "ZW",
            "ngoaidmap": "gn_878675",
            "latitude": -19.015438,
            "longitude": 29.154857
        }
    ]
}